city,province,city_province,lng,lat
اسکو,آذربایجان شرقی,"اسکو, استان آذربایجان شرقی",46.11590133,37.91815133
اهر,آذربایجان شرقی,"اهر, استان آذربایجان شرقی",47.06083767,38.47398467
ایلخچی,آذربایجان شرقی,"ایلخچی, استان آذربایجان شرقی",45.97648700,37.93874100
آبش احمد,آذربایجان شرقی,"آبش احمد, استان آذربایجان شرقی",45.97648700,37.93874100
آذرشهر,آذربایجان شرقی,"آذرشهر, استان آذربایجان شرقی",45.97493567,37.76674167
آقکند,آذربایجان شرقی,"آقکند, استان آذربایجان شرقی",48.06207033,37.25644733
باسمنج,آذربایجان شرقی,"باسمنج, استان آذربایجان شرقی",46.47155000,37.99399900
بخشایش,آذربایجان شرقی,"بخشایش, استان آذربایجان شرقی",56.30798300,27.19463500
بستان آباد,آذربایجان شرقی,"بستان آباد, استان آذربایجان شرقی",46.82872567,37.84237967
بناب,آذربایجان شرقی,"بناب, استان آذربایجان شرقی",46.05387100,37.33813900
بناب جدید,آذربایجان شرقی,"بناب جدید, استان آذربایجان شرقی",,
تبریز,آذربایجان شرقی,"تبریز, استان آذربایجان شرقی",46.05387100,37.33813900
ترک,آذربایجان شرقی,"ترک, استان آذربایجان شرقی",47.76815400,37.61820100
ترکمانچای,آذربایجان شرقی,"ترکمانچای, استان آذربایجان شرقی",47.39230033,37.57910733
تسوج,آذربایجان شرقی,"تسوج, استان آذربایجان شرقی",45.36021833,38.31512933
تیکمه داش,آذربایجان شرقی,"تیکمه داش, استان آذربایجان شرقی",45.36021833,38.31512933
جلفا,آذربایجان شرقی,"جلفا, استان آذربایجان شرقی",46.94019833,37.72665333
خاروانا,آذربایجان شرقی,"خاروانا, استان آذربایجان شرقی",45.62766533,38.93720633
خامنه,آذربایجان شرقی,"خامنه, استان آذربایجان شرقی",45.63089367,38.19028367
خراجو,آذربایجان شرقی,"خراجو, استان آذربایجان شرقی",,
خسروشهر,آذربایجان شرقی,"خسروشهر, استان آذربایجان شرقی",,
خضرلو,آذربایجان شرقی,"خضرلو, استان آذربایجان شرقی",45.95920467,37.43056567
خمارلو,آذربایجان شرقی,"خمارلو, استان آذربایجان شرقی",47.03283167,39.15898667
خواجه,آذربایجان شرقی,"خواجه, استان آذربایجان شرقی",46.58601900,38.15541500
دوزدوزان,آذربایجان شرقی,"دوزدوزان, استان آذربایجان شرقی",47.11435733,37.94484133
زرنق,آذربایجان شرقی,"زرنق, استان آذربایجان شرقی",47.08432967,38.09451467
زنوز,آذربایجان شرقی,"زنوز, استان آذربایجان شرقی",45.82897000,38.58974200
سراب,آذربایجان شرقی,"سراب, استان آذربایجان شرقی",47.53626233,37.94236733
سردرود,آذربایجان شرقی,"سردرود, استان آذربایجان شرقی",46.99569133,35.31105533
سهند,آذربایجان شرقی,"سهند, استان آذربایجان شرقی",46.11384600,37.94512900
سیس,آذربایجان شرقی,"سیس, استان آذربایجان شرقی",45.81510033,38.20030133
سیه رود,آذربایجان شرقی,"سیه رود, استان آذربایجان شرقی",46.00456867,38.86773967
شبستر,آذربایجان شرقی,"شبستر, استان آذربایجان شرقی",46.00456867,38.86773967
شربیان,آذربایجان شرقی,"شربیان, استان آذربایجان شرقی",47.10056933,37.88322933
شرفخانه,آذربایجان شرقی,"شرفخانه, استان آذربایجان شرقی",47.10056933,37.88322933
شندآباد,آذربایجان شرقی,"شندآباد, استان آذربایجان شرقی",45.48961633,38.17789533
صوفیان,آذربایجان شرقی,"صوفیان, استان آذربایجان شرقی",45.98130633,38.28288033
عجب شیر,آذربایجان شرقی,"عجب شیر, استان آذربایجان شرقی",45.89475233,37.47692033
قره آغاج,آذربایجان شرقی,"قره آغاج, استان آذربایجان شرقی",45.89475233,37.47692033
کشکسرای,آذربایجان شرقی,"کشکسرای, استان آذربایجان شرقی",50.87049533,34.64028633
کلوانق,آذربایجان شرقی,"کلوانق, استان آذربایجان شرقی",50.87049533,34.64028633
کلیبر,آذربایجان شرقی,"کلیبر, استان آذربایجان شرقی",47.04381767,38.86317267
کوزه کنان,آذربایجان شرقی,"کوزه کنان, استان آذربایجان شرقی",45.57436400,38.18760200
گوگان,آذربایجان شرقی,"گوگان, استان آذربایجان شرقی",45.57436400,38.18760200
لیلان,آذربایجان شرقی,"لیلان, استان آذربایجان شرقی",46.20353467,37.01300867
مراغه,آذربایجان شرقی,"مراغه, استان آذربایجان شرقی",46.20353467,37.01300867
مرند,آذربایجان شرقی,"مرند, استان آذربایجان شرقی",45.77383800,38.43060500
ملکان,آذربایجان شرقی,"ملکان, استان آذربایجان شرقی",46.10408533,37.15030133
ملک کیان,آذربایجان شرقی,"ملک کیان, استان آذربایجان شرقی",46.10408533,37.15030133
ممقان,آذربایجان شرقی,"ممقان, استان آذربایجان شرقی",45.97207100,37.84595300
مهربان,آذربایجان شرقی,"مهربان, استان آذربایجان شرقی",47.13056000,38.08543500
میانه,آذربایجان شرقی,"میانه, استان آذربایجان شرقی",59.54444900,36.32606200
نظرکهریزی,آذربایجان شرقی,"نظرکهریزی, استان آذربایجان شرقی",46.76478000,37.34570000
هادی شهر,آذربایجان شرقی,"هادی شهر, استان آذربایجان شرقی",45.66261867,38.84017567
هرگلان,آذربایجان شرقی,"هرگلان, استان آذربایجان شرقی",46.21885167,37.64080867
هریس,آذربایجان شرقی,"هریس, استان آذربایجان شرقی",47.11696233,38.25281433
هشترود,آذربایجان شرقی,"هشترود, استان آذربایجان شرقی",47.04980800,37.47595700
هوراند,آذربایجان شرقی,"هوراند, استان آذربایجان شرقی",47.36695900,38.86058900
وایقان,آذربایجان شرقی,"وایقان, استان آذربایجان شرقی",45.71066300,38.13349400
ورزقان,آذربایجان شرقی,"ورزقان, استان آذربایجان شرقی",46.64658200,38.50866800
یامچی,آذربایجان شرقی,"یامچی, استان آذربایجان شرقی",45.63926267,38.51948067
ارومیه,آذربایجان غربی,"ارومیه, استان آذربایجان غربی",45.07627600,37.55321600
اشنویه,آذربایجان غربی,"اشنویه, استان آذربایجان غربی",45.10139167,37.04292267
ایواوغلی,آذربایجان غربی,"ایواوغلی, استان آذربایجان غربی",45.20718033,38.71227133
آواجیق,آذربایجان غربی,"آواجیق, استان آذربایجان غربی",44.15378000,39.33348500
باروق,آذربایجان غربی,"باروق, استان آذربایجان غربی",46.31970633,36.95518233
بازرگان,آذربایجان غربی,"بازرگان, استان آذربایجان غربی",44.38735367,39.39721267
بوکان,آذربایجان غربی,"بوکان, استان آذربایجان غربی",46.20708433,36.51512233
پلدشت,آذربایجان غربی,"پلدشت, استان آذربایجان غربی",45.06581333,39.34696033
پیرانشهر,آذربایجان غربی,"پیرانشهر, استان آذربایجان غربی",45.14103067,36.69408467
تازه شهر,آذربایجان غربی,"تازه شهر, استان آذربایجان غربی",44.69716633,38.17576233
تکاب,آذربایجان غربی,"تکاب, استان آذربایجان غربی",47.11087533,36.40086733
چهاربرج,آذربایجان غربی,"چهاربرج, استان آذربایجان غربی",45.97847900,37.12530500
خوی,آذربایجان غربی,"خوی, استان آذربایجان غربی",44.95974633,38.55179433
دیزج دیز,آذربایجان غربی,"دیزج دیز, استان آذربایجان غربی",45.02289100,38.45977700
ربط,آذربایجان غربی,"ربط, استان آذربایجان غربی",51.08132367,35.48203167
سردشت,آذربایجان غربی,"سردشت, استان آذربایجان غربی",45.47611833,36.15683033
سرو,آذربایجان غربی,"سرو, استان آذربایجان غربی",45.47611833,36.15683033
سلماس,آذربایجان غربی,"سلماس, استان آذربایجان غربی",44.76643767,38.19378567
سیلوانه,آذربایجان غربی,"سیلوانه, استان آذربایجان غربی",44.85454433,37.42133533
سیمینه,آذربایجان غربی,"سیمینه, استان آذربایجان غربی",44.85454433,37.42133533
سیه چشمه,آذربایجان غربی,"سیه چشمه, استان آذربایجان غربی",44.85454433,37.42133533
شاهین دژ,آذربایجان غربی,"شاهین دژ, استان آذربایجان غربی",51.55308000,32.86037100
شوط,آذربایجان غربی,"شوط, استان آذربایجان غربی",52.53338000,29.59665700
فیرورق,آذربایجان غربی,"فیرورق, استان آذربایجان غربی",44.83341933,38.58098633
قره ضیاءالدین,آذربایجان غربی,"قره ضیاءالدین, استان آذربایجان غربی",45.03223967,38.89336267
قطور,آذربایجان غربی,"قطور, استان آذربایجان غربی",44.40723433,38.47344033
قوشچی,آذربایجان غربی,"قوشچی, استان آذربایجان غربی",45.03842633,37.98987533
کشاورز,آذربایجان غربی,"کشاورز, استان آذربایجان غربی",45.03842633,37.98987533
گردکشانه,آذربایجان غربی,"گردکشانه, استان آذربایجان غربی",45.03842633,37.98987533
ماکو,آذربایجان غربی,"ماکو, استان آذربایجان غربی",50.96939233,35.82864433
محمدیار,آذربایجان غربی,"محمدیار, استان آذربایجان غربی",50.96939233,35.82864433
محمودآباد,آذربایجان غربی,"محمودآباد, استان آذربایجان غربی",45.51617933,36.98286133
مهاباد,آذربایجان غربی,"مهاباد, استان آذربایجان غربی",45.72159700,36.76502100
میاندوآب,آذربایجان غربی,"میاندوآب, استان آذربایجان غربی",59.54444900,36.32606200
میرآباد,آذربایجان غربی,"میرآباد, استان آذربایجان غربی",59.54444900,36.32606200
نالوس,آذربایجان غربی,"نالوس, استان آذربایجان غربی",45.14316267,36.98332967
نقده,آذربایجان غربی,"نقده, استان آذربایجان غربی",45.38695433,36.95436933
نوشین,آذربایجان غربی,"نوشین, استان آذربایجان غربی",,
اردبیل,اردبیل,"اردبیل, استان اردبیل",48.29425767,38.24700867
اصلاندوز,اردبیل,"اصلاندوز, استان اردبیل",47.41018800,39.44133100
آبی بیگلو,اردبیل,"آبی بیگلو, استان اردبیل",48.55014533,38.28116333
بیله سوار,اردبیل,"بیله سوار, استان اردبیل",48.34771367,39.38249567
پارس آباد,اردبیل,"پارس آباد, استان اردبیل",47.91220767,39.63912567
تازه کند,اردبیل,"تازه کند, استان اردبیل",48.01617133,39.57514833
تازه کندانگوت,اردبیل,"تازه کندانگوت, استان اردبیل",47.74411167,39.04591167
جعفرآباد,اردبیل,"جعفرآباد, استان اردبیل",48.09468500,39.43820000
خلخال,اردبیل,"خلخال, استان اردبیل",48.52463267,37.62137567
رضی,اردبیل,"رضی, استان اردبیل",48.10037067,38.62523767
سرعین,اردبیل,"سرعین, استان اردبیل",46.99569133,35.31105533
عنبران,اردبیل,"عنبران, استان اردبیل",48.43452300,38.48868400
فخرآباد,اردبیل,"فخرآباد, استان اردبیل",47.85907967,38.52752267
کلور,اردبیل,"کلور, استان اردبیل",48.72283900,37.38995400
کوراییم,اردبیل,"کوراییم, استان اردبیل",48.23418100,37.95423300
گرمی,اردبیل,"گرمی, استان اردبیل",48.07622700,39.04136400
گیوی,اردبیل,"گیوی, استان اردبیل",54.43316467,36.84209567
لاهرود,اردبیل,"لاهرود, استان اردبیل",47.83187133,38.50524333
مشگین شهر,اردبیل,"مشگین شهر, استان اردبیل",47.67765867,38.39826667
نمین,اردبیل,"نمین, استان اردبیل",48.48228800,38.42627000
نیر,اردبیل,"نیر, استان اردبیل",48.01312667,38.03606767
هشتجین,اردبیل,"هشتجین, استان اردبیل",,
هیر,اردبیل,"هیر, استان اردبیل",48.50589933,38.08051233
ابریشم,اصفهان,"ابریشم, استان اصفهان",51.57376033,32.55894533
ابوزیدآباد,اصفهان,"ابوزیدآباد, استان اصفهان",51.76581367,33.90052167
اردستان,اصفهان,"اردستان, استان اصفهان",52.38132833,33.37868933
اژیه,اصفهان,"اژیه, استان اصفهان",52.37888000,32.43809600
اصفهان,اصفهان,"اصفهان, استان اصفهان",51.67157300,32.67210700
افوس,اصفهان,"افوس, استان اصفهان",50.09254733,33.02321133
انارک,اصفهان,"انارک, استان اصفهان",53.69434000,33.30447200
ایمانشهر,اصفهان,"ایمانشهر, استان اصفهان",51.67157300,32.67210700
آران وبیدگل,اصفهان,"آران وبیدگل, استان اصفهان",51.67157300,32.67210700
بادرود,اصفهان,"بادرود, استان اصفهان",52.00768433,33.69271133
باغ بهادران,اصفهان,"باغ بهادران, استان اصفهان",51.12828933,35.63817933
بافران,اصفهان,"بافران, استان اصفهان",51.12828933,35.63817933
برزک,اصفهان,"برزک, استان اصفهان",51.22593367,33.78360967
برف انبار,اصفهان,"برف انبار, استان اصفهان",50.19247500,32.99937900
بهاران شهر,اصفهان,"بهاران شهر, استان اصفهان",,
بهارستان,اصفهان,"بهارستان, استان اصفهان",51.77738800,32.49394200
بوئین و میاندشت,اصفهان,"بوئین و میاندشت, استان اصفهان",,
پیربکران,اصفهان,"پیربکران, استان اصفهان",51.55938500,32.47204700
تودشک,اصفهان,"تودشک, استان اصفهان",52.66699333,32.71983833
تیران,اصفهان,"تیران, استان اصفهان",51.15235633,32.70412733
جندق,اصفهان,"جندق, استان اصفهان",54.41390500,34.03831300
جوزدان,اصفهان,"جوزدان, استان اصفهان",51.37421033,32.55475533
جوشقان و کامو,اصفهان,"جوشقان و کامو, استان اصفهان",,
چادگان,اصفهان,"چادگان, استان اصفهان",50.62815733,32.77158533
چرمهین,اصفهان,"چرمهین, استان اصفهان",51.18971833,32.33365133
چمگردان,اصفهان,"چمگردان, استان اصفهان",51.18971833,32.33365133
حبیب آباد,اصفهان,"حبیب آباد, استان اصفهان",51.77581267,32.82753067
حسن آباد,اصفهان,"حسن آباد, استان اصفهان",51.23702600,35.36615200
حنا,اصفهان,"حنا, استان اصفهان",51.72420767,31.19775367
خالدآباد,اصفهان,"خالدآباد, استان اصفهان",51.98642000,33.69928100
خمینی شهر,اصفهان,"خمینی شهر, استان اصفهان",51.53606467,32.68049667
خوانسار,اصفهان,"خوانسار, استان اصفهان",50.31752533,33.22605733
خور,اصفهان,"خور, استان اصفهان",55.08518233,33.77382333
خورزوق,اصفهان,"خورزوق, استان اصفهان",51.64854533,32.77274433
داران,اصفهان,"داران, استان اصفهان",50.41516500,32.99147600
دامنه,اصفهان,"دامنه, استان اصفهان",50.48859267,33.01844367
درچه,اصفهان,"درچه, استان اصفهان",51.55331100,32.61308400
دستگرد,اصفهان,"دستگرد, استان اصفهان",51.67166167,32.79679767
دهاقان,اصفهان,"دهاقان, استان اصفهان",50.56401600,30.79262100
دهق,اصفهان,"دهق, استان اصفهان",50.95271767,33.10684067
دولت آباد,اصفهان,"دولت آباد, استان اصفهان",48.41144267,32.38740767
دیزیچه,اصفهان,"دیزیچه, استان اصفهان",48.41144267,32.38740767
رزوه,اصفهان,"رزوه, استان اصفهان",50.57224633,32.83759333
رضوانشهر,اصفهان,"رضوانشهر, استان اصفهان",50.57224633,32.83759333
زاینده رود,اصفهان,"زاینده رود, استان اصفهان",51.26959567,32.39234567
زرین شهر,اصفهان,"زرین شهر, استان اصفهان",51.37372100,32.39397500
زواره,اصفهان,"زواره, استان اصفهان",51.37372100,32.39397500
زیباشهر,اصفهان,"زیباشهر, استان اصفهان",52.48745600,33.44758800
سده لنجان,اصفهان,"سده لنجان, استان اصفهان",51.31412467,32.37916767
سفیدشهر,اصفهان,"سفیدشهر, استان اصفهان",51.31412467,32.37916767
سگزی,اصفهان,"سگزی, استان اصفهان",51.35450833,34.12310633
سمیرم,اصفهان,"سمیرم, استان اصفهان",51.56617233,31.41448533
شاهین شهر,اصفهان,"شاهین شهر, استان اصفهان",51.55308000,32.86037100
شهرضا,اصفهان,"شهرضا, استان اصفهان",51.85222667,32.00734567
طالخونچه,اصفهان,"طالخونچه, استان اصفهان",51.56015800,32.26239000
عسگران,اصفهان,"عسگران, استان اصفهان",50.85631233,32.86963133
علویجه,اصفهان,"علویجه, استان اصفهان",51.08057933,33.05195033
فرخی,اصفهان,"فرخی, استان اصفهان",54.94369467,33.84468667
فریدونشهر,اصفهان,"فریدونشهر, استان اصفهان",54.94369467,33.84468667
فلاورجان,اصفهان,"فلاورجان, استان اصفهان",,
فولادشهر,اصفهان,"فولادشهر, استان اصفهان",,
قمصر,اصفهان,"قمصر, استان اصفهان",54.94369467,33.84468667
قهجاورستان,اصفهان,"قهجاورستان, استان اصفهان",54.94369467,33.84468667
قهدریجان,اصفهان,"قهدریجان, استان اصفهان",54.94369467,33.84468667
کاشان,اصفهان,"کاشان, استان اصفهان",54.94369467,33.84468667
کرکوند,اصفهان,"کرکوند, استان اصفهان",خطا,خطا
کلیشاد و سودرجان,اصفهان,"کلیشاد و سودرجان, استان اصفهان",خطا,خطا
کمشچه,اصفهان,"کمشچه, استان اصفهان",خطا,خطا
کمه,اصفهان,"کمه, استان اصفهان",خطا,خطا
کهریزسنگ,اصفهان,"کهریزسنگ, استان اصفهان",خطا,خطا
کوشک,اصفهان,"کوشک, استان اصفهان",خطا,خطا
کوهپایه,اصفهان,"کوهپایه, استان اصفهان",خطا,خطا
گرگاب,اصفهان,"گرگاب, استان اصفهان",خطا,خطا
گزبرخوار,اصفهان,"گزبرخوار, استان اصفهان",خطا,خطا
گلپایگان,اصفهان,"گلپایگان, استان اصفهان",خطا,خطا
گلدشت,اصفهان,"گلدشت, استان اصفهان",خطا,خطا
گلشهر,اصفهان,"گلشهر, استان اصفهان",خطا,خطا
گوگد,اصفهان,"گوگد, استان اصفهان",خطا,خطا
لای بید,اصفهان,"لای بید, استان اصفهان",,
مبارکه,اصفهان,"مبارکه, استان اصفهان",خطا,خطا
مجلسی,اصفهان,"مجلسی, استان اصفهان",خطا,خطا
محمدآباد,اصفهان,"محمدآباد, استان اصفهان",خطا,خطا
مشکات,اصفهان,"مشکات, استان اصفهان",خطا,خطا
منظریه,اصفهان,"منظریه, استان اصفهان",خطا,خطا
مهاباد,اصفهان,"مهاباد, استان اصفهان",خطا,خطا
میمه,اصفهان,"میمه, استان اصفهان",خطا,خطا
نائین,اصفهان,"نائین, استان اصفهان",خطا,خطا
نجف آباد,اصفهان,"نجف آباد, استان اصفهان",خطا,خطا
نصرآباد,اصفهان,"نصرآباد, استان اصفهان",خطا,خطا
نطنز,اصفهان,"نطنز, استان اصفهان",خطا,خطا
نوش آباد,اصفهان,"نوش آباد, استان اصفهان",خطا,خطا
نیاسر,اصفهان,"نیاسر, استان اصفهان",خطا,خطا
نیک آباد,اصفهان,"نیک آباد, استان اصفهان",خطا,خطا
هرند,اصفهان,"هرند, استان اصفهان",خطا,خطا
ورزنه,اصفهان,"ورزنه, استان اصفهان",خطا,خطا
ورنامخواست,اصفهان,"ورنامخواست, استان اصفهان",خطا,خطا
وزوان,اصفهان,"وزوان, استان اصفهان",خطا,خطا
ونک,اصفهان,"ونک, استان اصفهان",خطا,خطا
اسارا,البرز,"اسارا, استان البرز",خطا,خطا
اشتهارد,البرز,"اشتهارد, استان البرز",خطا,خطا
تنکمان,البرز,"تنکمان, استان البرز",خطا,خطا
چهارباغ,البرز,"چهارباغ, استان البرز",,
سعید آباد,البرز,"سعید آباد, استان البرز",خطا,خطا
شهر جدید هشتگرد,البرز,"شهر جدید هشتگرد, استان البرز",خطا,خطا
طالقان,البرز,"طالقان, استان البرز",,
کرج,البرز,"کرج, استان البرز",خطا,خطا
کمال شهر,البرز,"کمال شهر, استان البرز",خطا,خطا
کوهسار,البرز,"کوهسار, استان البرز",خطا,خطا
گرمدره,البرز,"گرمدره, استان البرز",خطا,خطا
ماهدشت,البرز,"ماهدشت, استان البرز",خطا,خطا
محمدشهر,البرز,"محمدشهر, استان البرز",خطا,خطا
مشکین دشت,البرز,"مشکین دشت, استان البرز",خطا,خطا
نظرآباد,البرز,"نظرآباد, استان البرز",خطا,خطا
هشتگرد,البرز,"هشتگرد, استان البرز",خطا,خطا
ارکواز,ایلام,"ارکواز, استان ایلام",خطا,خطا
ایلام,ایلام,"ایلام, استان ایلام",خطا,خطا
ایوان,ایلام,"ایوان, استان ایلام",خطا,خطا
آبدانان,ایلام,"آبدانان, استان ایلام",خطا,خطا
آسمان آباد,ایلام,"آسمان آباد, استان ایلام",خطا,خطا
بدره,ایلام,"بدره, استان ایلام",خطا,خطا
پهله,ایلام,"پهله, استان ایلام",خطا,خطا
توحید,ایلام,"توحید, استان ایلام",خطا,خطا
چوار,ایلام,"چوار, استان ایلام",,
دره شهر,ایلام,"دره شهر, استان ایلام",خطا,خطا
دلگشا,ایلام,"دلگشا, استان ایلام",خطا,خطا
دهلران,ایلام,"دهلران, استان ایلام",خطا,خطا
زرنه,ایلام,"زرنه, استان ایلام",خطا,خطا
سراب باغ,ایلام,"سراب باغ, استان ایلام",خطا,خطا
سرابله,ایلام,"سرابله, استان ایلام",خطا,خطا
صالح آباد,ایلام,"صالح آباد, استان ایلام",,
لومار,ایلام,"لومار, استان ایلام",,
مهران,ایلام,"مهران, استان ایلام",خطا,خطا
مورموری,ایلام,"مورموری, استان ایلام",خطا,خطا
موسیان,ایلام,"موسیان, استان ایلام",خطا,خطا
میمه,ایلام,"میمه, استان ایلام",خطا,خطا
امام حسن,بوشهر,"امام حسن, استان بوشهر",خطا,خطا
انارستان,بوشهر,"انارستان, استان بوشهر",خطا,خطا
اهرم,بوشهر,"اهرم, استان بوشهر",خطا,خطا
آب پخش,بوشهر,"آب پخش, استان بوشهر",خطا,خطا
آبدان,بوشهر,"آبدان, استان بوشهر",خطا,خطا
برازجان,بوشهر,"برازجان, استان بوشهر",خطا,خطا
بردخون,بوشهر,"بردخون, استان بوشهر",خطا,خطا
بندردیر,بوشهر,"بندردیر, استان بوشهر",خطا,خطا
بندردیلم,بوشهر,"بندردیلم, استان بوشهر",خطا,خطا
بندرریگ,بوشهر,"بندرریگ, استان بوشهر",خطا,خطا
بندرکنگان,بوشهر,"بندرکنگان, استان بوشهر",خطا,خطا
بندرگناوه,بوشهر,"بندرگناوه, استان بوشهر",خطا,خطا
بنک,بوشهر,"بنک, استان بوشهر",خطا,خطا
بوشهر,بوشهر,"بوشهر, استان بوشهر",خطا,خطا
تنگ ارم,بوشهر,"تنگ ارم, استان بوشهر",خطا,خطا
جم,بوشهر,"جم, استان بوشهر",,
چغادک,بوشهر,"چغادک, استان بوشهر",,
خارک,بوشهر,"خارک, استان بوشهر",,
خورموج,بوشهر,"خورموج, استان بوشهر",,
دالکی,بوشهر,"دالکی, استان بوشهر",خطا,خطا
دلوار,بوشهر,"دلوار, استان بوشهر",خطا,خطا
ریز,بوشهر,"ریز, استان بوشهر",خطا,خطا
سعدآباد,بوشهر,"سعدآباد, استان بوشهر",خطا,خطا
سیراف,بوشهر,"سیراف, استان بوشهر",خطا,خطا
شبانکاره,بوشهر,"شبانکاره, استان بوشهر",خطا,خطا
شنبه,بوشهر,"شنبه, استان بوشهر",خطا,خطا
عسلویه,بوشهر,"عسلویه, استان بوشهر",,
کاکی,بوشهر,"کاکی, استان بوشهر",خطا,خطا
کلمه,بوشهر,"کلمه, استان بوشهر",خطا,خطا
نخل تقی,بوشهر,"نخل تقی, استان بوشهر",خطا,خطا
وحدتیه,بوشهر,"وحدتیه, استان بوشهر",خطا,خطا
ارجمند,تهران,"ارجمند, استان تهران",خطا,خطا
اسلامشهر,تهران,"اسلامشهر, استان تهران",خطا,خطا
اندیشه,تهران,"اندیشه, استان تهران",خطا,خطا
آبسرد,تهران,"آبسرد, استان تهران",خطا,خطا
آبعلی,تهران,"آبعلی, استان تهران",خطا,خطا
باغستان,تهران,"باغستان, استان تهران",خطا,خطا
باقرشهر,تهران,"باقرشهر, استان تهران",خطا,خطا
بومهن,تهران,"بومهن, استان تهران",خطا,خطا
پاکدشت,تهران,"پاکدشت, استان تهران",خطا,خطا
پردیس,تهران,"پردیس, استان تهران",خطا,خطا
پیشوا,تهران,"پیشوا, استان تهران",خطا,خطا
تهران,تهران,"تهران, استان تهران",خطا,خطا
جوادآباد,تهران,"جوادآباد, استان تهران",,
چهاردانگه,تهران,"چهاردانگه, استان تهران",,
حسن آباد,تهران,"حسن آباد, استان تهران",,
دماوند,تهران,"دماوند, استان تهران",خطا,خطا
دیزین,تهران,"دیزین, استان تهران",خطا,خطا
شهر ری,تهران,"شهر ری, استان تهران",خطا,خطا
رباط کریم,تهران,"رباط کریم, استان تهران",خطا,خطا
رودهن,تهران,"رودهن, استان تهران",خطا,خطا
شاهدشهر,تهران,"شاهدشهر, استان تهران",خطا,خطا
شریف آباد,تهران,"شریف آباد, استان تهران",خطا,خطا
شمشک,تهران,"شمشک, استان تهران",خطا,خطا
شهریار,تهران,"شهریار, استان تهران",خطا,خطا
صالح آباد,تهران,"صالح آباد, استان تهران",,
صباشهر,تهران,"صباشهر, استان تهران",,
صفادشت,تهران,"صفادشت, استان تهران",,
فردوسیه,تهران,"فردوسیه, استان تهران",,
فشم,تهران,"فشم, استان تهران",,
فیروزکوه,تهران,"فیروزکوه, استان تهران",,
قدس,تهران,"قدس, استان تهران",خطا,خطا
قرچک,تهران,"قرچک, استان تهران",خطا,خطا
کهریزک,تهران,"کهریزک, استان تهران",خطا,خطا
کیلان,تهران,"کیلان, استان تهران",خطا,خطا
گلستان,تهران,"گلستان, استان تهران",خطا,خطا
لواسان,تهران,"لواسان, استان تهران",,
ملارد,تهران,"ملارد, استان تهران",خطا,خطا
میگون,تهران,"میگون, استان تهران",خطا,خطا
نسیم شهر,تهران,"نسیم شهر, استان تهران",خطا,خطا
نصیرآباد,تهران,"نصیرآباد, استان تهران",خطا,خطا
وحیدیه,تهران,"وحیدیه, استان تهران",خطا,خطا
ورامین,تهران,"ورامین, استان تهران",خطا,خطا
اردل,چهارمحال و بختیاری,"اردل, استان چهارمحال و بختیاری",خطا,خطا
آلونی,چهارمحال و بختیاری,"آلونی, استان چهارمحال و بختیاری",خطا,خطا
باباحیدر,چهارمحال و بختیاری,"باباحیدر, استان چهارمحال و بختیاری",خطا,خطا
بروجن,چهارمحال و بختیاری,"بروجن, استان چهارمحال و بختیاری",خطا,خطا
بلداجی,چهارمحال و بختیاری,"بلداجی, استان چهارمحال و بختیاری",خطا,خطا
بن,چهارمحال و بختیاری,"بن, استان چهارمحال و بختیاری",خطا,خطا
جونقان,چهارمحال و بختیاری,"جونقان, استان چهارمحال و بختیاری",,
چلگرد,چهارمحال و بختیاری,"چلگرد, استان چهارمحال و بختیاری",,
سامان,چهارمحال و بختیاری,"سامان, استان چهارمحال و بختیاری",خطا,خطا
سفیددشت,چهارمحال و بختیاری,"سفیددشت, استان چهارمحال و بختیاری",خطا,خطا
سودجان,چهارمحال و بختیاری,"سودجان, استان چهارمحال و بختیاری",خطا,خطا
سورشجان,چهارمحال و بختیاری,"سورشجان, استان چهارمحال و بختیاری",خطا,خطا
شلمزار,چهارمحال و بختیاری,"شلمزار, استان چهارمحال و بختیاری",خطا,خطا
شهرکرد,چهارمحال و بختیاری,"شهرکرد, استان چهارمحال و بختیاری",خطا,خطا
طاقانک,چهارمحال و بختیاری,"طاقانک, استان چهارمحال و بختیاری",,
فارسان,چهارمحال و بختیاری,"فارسان, استان چهارمحال و بختیاری",,
فرادنبه,چهارمحال و بختیاری,"فرادنبه, استان چهارمحال و بختیاری",,
فرخ شهر,چهارمحال و بختیاری,"فرخ شهر, استان چهارمحال و بختیاری",,
کیان,چهارمحال و بختیاری,"کیان, استان چهارمحال و بختیاری",خطا,خطا
گندمان,چهارمحال و بختیاری,"گندمان, استان چهارمحال و بختیاری",خطا,خطا
گهرو,چهارمحال و بختیاری,"گهرو, استان چهارمحال و بختیاری",خطا,خطا
لردگان,چهارمحال و بختیاری,"لردگان, استان چهارمحال و بختیاری",,
مال خلیفه,چهارمحال و بختیاری,"مال خلیفه, استان چهارمحال و بختیاری",خطا,خطا
ناغان,چهارمحال و بختیاری,"ناغان, استان چهارمحال و بختیاری",خطا,خطا
نافچ,چهارمحال و بختیاری,"نافچ, استان چهارمحال و بختیاری",خطا,خطا
نقنه,چهارمحال و بختیاری,"نقنه, استان چهارمحال و بختیاری",خطا,خطا
هفشجان,چهارمحال و بختیاری,"هفشجان, استان چهارمحال و بختیاری",خطا,خطا
ارسک,خراسان جنوبی,"ارسک, استان خراسان جنوبی",خطا,خطا
اسدیه,خراسان جنوبی,"اسدیه, استان خراسان جنوبی",خطا,خطا
اسفدن,خراسان جنوبی,"اسفدن, استان خراسان جنوبی",خطا,خطا
اسلامیه,خراسان جنوبی,"اسلامیه, استان خراسان جنوبی",خطا,خطا
آرین شهر,خراسان جنوبی,"آرین شهر, استان خراسان جنوبی",خطا,خطا
آیسک,خراسان جنوبی,"آیسک, استان خراسان جنوبی",خطا,خطا
بشرویه,خراسان جنوبی,"بشرویه, استان خراسان جنوبی",خطا,خطا
بیرجند,خراسان جنوبی,"بیرجند, استان خراسان جنوبی",خطا,خطا
حاجی آباد,خراسان جنوبی,"حاجی آباد, استان خراسان جنوبی",,
خضری دشت بیاض,خراسان جنوبی,"خضری دشت بیاض, استان خراسان جنوبی",,
خوسف,خراسان جنوبی,"خوسف, استان خراسان جنوبی",,
زهان,خراسان جنوبی,"زهان, استان خراسان جنوبی",خطا,خطا
سرایان,خراسان جنوبی,"سرایان, استان خراسان جنوبی",خطا,خطا
سربیشه,خراسان جنوبی,"سربیشه, استان خراسان جنوبی",خطا,خطا
سه قلعه,خراسان جنوبی,"سه قلعه, استان خراسان جنوبی",خطا,خطا
شوسف,خراسان جنوبی,"شوسف, استان خراسان جنوبی",خطا,خطا
طبس ,خراسان جنوبی,"طبس , استان خراسان جنوبی",,
فردوس,خراسان جنوبی,"فردوس, استان خراسان جنوبی",,
قاین,خراسان جنوبی,"قاین, استان خراسان جنوبی",خطا,خطا
قهستان,خراسان جنوبی,"قهستان, استان خراسان جنوبی",خطا,خطا
محمدشهر,خراسان جنوبی,"محمدشهر, استان خراسان جنوبی",خطا,خطا
مود,خراسان جنوبی,"مود, استان خراسان جنوبی",خطا,خطا
نهبندان,خراسان جنوبی,"نهبندان, استان خراسان جنوبی",خطا,خطا
نیمبلوک,خراسان جنوبی,"نیمبلوک, استان خراسان جنوبی",خطا,خطا
احمدآباد صولت,خراسان رضوی,"احمدآباد صولت, استان خراسان رضوی",خطا,خطا
انابد,خراسان رضوی,"انابد, استان خراسان رضوی",خطا,خطا
باجگیران,خراسان رضوی,"باجگیران, استان خراسان رضوی",خطا,خطا
باخرز,خراسان رضوی,"باخرز, استان خراسان رضوی",خطا,خطا
بار,خراسان رضوی,"بار, استان خراسان رضوی",خطا,خطا
بایگ,خراسان رضوی,"بایگ, استان خراسان رضوی",خطا,خطا
بجستان,خراسان رضوی,"بجستان, استان خراسان رضوی",خطا,خطا
بردسکن,خراسان رضوی,"بردسکن, استان خراسان رضوی",خطا,خطا
بیدخت,خراسان رضوی,"بیدخت, استان خراسان رضوی",خطا,خطا
تایباد,خراسان رضوی,"تایباد, استان خراسان رضوی",خطا,خطا
تربت جام,خراسان رضوی,"تربت جام, استان خراسان رضوی",خطا,خطا
تربت حیدریه,خراسان رضوی,"تربت حیدریه, استان خراسان رضوی",خطا,خطا
جغتای,خراسان رضوی,"جغتای, استان خراسان رضوی",,
جنگل,خراسان رضوی,"جنگل, استان خراسان رضوی",,
چاپشلو,خراسان رضوی,"چاپشلو, استان خراسان رضوی",,
چکنه,خراسان رضوی,"چکنه, استان خراسان رضوی",,
چناران,خراسان رضوی,"چناران, استان خراسان رضوی",,
خرو,خراسان رضوی,"خرو, استان خراسان رضوی",,
خلیل آباد,خراسان رضوی,"خلیل آباد, استان خراسان رضوی",,
خواف,خراسان رضوی,"خواف, استان خراسان رضوی",,
داورزن,خراسان رضوی,"داورزن, استان خراسان رضوی",خطا,خطا
درگز,خراسان رضوی,"درگز, استان خراسان رضوی",خطا,خطا
در رود,خراسان رضوی,"در رود, استان خراسان رضوی",خطا,خطا
دولت آباد,خراسان رضوی,"دولت آباد, استان خراسان رضوی",خطا,خطا
رباط سنگ,خراسان رضوی,"رباط سنگ, استان خراسان رضوی",خطا,خطا
رشتخوار,خراسان رضوی,"رشتخوار, استان خراسان رضوی",خطا,خطا
رضویه,خراسان رضوی,"رضویه, استان خراسان رضوی",خطا,خطا
روداب,خراسان رضوی,"روداب, استان خراسان رضوی",خطا,خطا
ریوش,خراسان رضوی,"ریوش, استان خراسان رضوی",خطا,خطا
سبزوار,خراسان رضوی,"سبزوار, استان خراسان رضوی",خطا,خطا
سرخس,خراسان رضوی,"سرخس, استان خراسان رضوی",خطا,خطا
سفیدسنگ,خراسان رضوی,"سفیدسنگ, استان خراسان رضوی",خطا,خطا
سلامی,خراسان رضوی,"سلامی, استان خراسان رضوی",خطا,خطا
سلطان آباد,خراسان رضوی,"سلطان آباد, استان خراسان رضوی",خطا,خطا
سنگان,خراسان رضوی,"سنگان, استان خراسان رضوی",خطا,خطا
شادمهر,خراسان رضوی,"شادمهر, استان خراسان رضوی",خطا,خطا
شاندیز,خراسان رضوی,"شاندیز, استان خراسان رضوی",خطا,خطا
ششتمد,خراسان رضوی,"ششتمد, استان خراسان رضوی",خطا,خطا
شهرآباد,خراسان رضوی,"شهرآباد, استان خراسان رضوی",خطا,خطا
شهرزو,خراسان رضوی,"شهرزو, استان خراسان رضوی",خطا,خطا
صالح آباد,خراسان رضوی,"صالح آباد, استان خراسان رضوی",,
طرقبه,خراسان رضوی,"طرقبه, استان خراسان رضوی",,
عشق آباد,خراسان رضوی,"عشق آباد, استان خراسان رضوی",,
فرهادگرد,خراسان رضوی,"فرهادگرد, استان خراسان رضوی",,
فریمان,خراسان رضوی,"فریمان, استان خراسان رضوی",,
فیروزه,خراسان رضوی,"فیروزه, استان خراسان رضوی",,
فیض آباد,خراسان رضوی,"فیض آباد, استان خراسان رضوی",,
قاسم آباد,خراسان رضوی,"قاسم آباد, استان خراسان رضوی",خطا,خطا
قدمگاه,خراسان رضوی,"قدمگاه, استان خراسان رضوی",خطا,خطا
قلندرآباد,خراسان رضوی,"قلندرآباد, استان خراسان رضوی",خطا,خطا
قوچان,خراسان رضوی,"قوچان, استان خراسان رضوی",خطا,خطا
کاخک,خراسان رضوی,"کاخک, استان خراسان رضوی",خطا,خطا
کاریز,خراسان رضوی,"کاریز, استان خراسان رضوی",خطا,خطا
کاشمر,خراسان رضوی,"کاشمر, استان خراسان رضوی",خطا,خطا
کدکن,خراسان رضوی,"کدکن, استان خراسان رضوی",خطا,خطا
کلات,خراسان رضوی,"کلات, استان خراسان رضوی",خطا,خطا
کندر,خراسان رضوی,"کندر, استان خراسان رضوی",خطا,خطا
گلمکان,خراسان رضوی,"گلمکان, استان خراسان رضوی",خطا,خطا
گناباد,خراسان رضوی,"گناباد, استان خراسان رضوی",خطا,خطا
لطف آباد,خراسان رضوی,"لطف آباد, استان خراسان رضوی",,
مزدآوند,خراسان رضوی,"مزدآوند, استان خراسان رضوی",خطا,خطا
مشهد,خراسان رضوی,"مشهد, استان خراسان رضوی",خطا,خطا
ملک آباد,خراسان رضوی,"ملک آباد, استان خراسان رضوی",خطا,خطا
نشتیفان,خراسان رضوی,"نشتیفان, استان خراسان رضوی",خطا,خطا
نصرآباد,خراسان رضوی,"نصرآباد, استان خراسان رضوی",خطا,خطا
نقاب,خراسان رضوی,"نقاب, استان خراسان رضوی",خطا,خطا
نوخندان,خراسان رضوی,"نوخندان, استان خراسان رضوی",خطا,خطا
نیشابور,خراسان رضوی,"نیشابور, استان خراسان رضوی",خطا,خطا
نیل شهر,خراسان رضوی,"نیل شهر, استان خراسان رضوی",خطا,خطا
همت آباد,خراسان رضوی,"همت آباد, استان خراسان رضوی",خطا,خطا
یونسی,خراسان رضوی,"یونسی, استان خراسان رضوی",خطا,خطا
اسفراین,خراسان شمالی,"اسفراین, استان خراسان شمالی",خطا,خطا
ایور,خراسان شمالی,"ایور, استان خراسان شمالی",خطا,خطا
آشخانه,خراسان شمالی,"آشخانه, استان خراسان شمالی",خطا,خطا
بجنورد,خراسان شمالی,"بجنورد, استان خراسان شمالی",خطا,خطا
پیش قلعه,خراسان شمالی,"پیش قلعه, استان خراسان شمالی",خطا,خطا
تیتکانلو,خراسان شمالی,"تیتکانلو, استان خراسان شمالی",خطا,خطا
جاجرم,خراسان شمالی,"جاجرم, استان خراسان شمالی",,
حصارگرمخان,خراسان شمالی,"حصارگرمخان, استان خراسان شمالی",,
درق,خراسان شمالی,"درق, استان خراسان شمالی",خطا,خطا
راز,خراسان شمالی,"راز, استان خراسان شمالی",خطا,خطا
سنخواست,خراسان شمالی,"سنخواست, استان خراسان شمالی",خطا,خطا
شوقان,خراسان شمالی,"شوقان, استان خراسان شمالی",خطا,خطا
شیروان,خراسان شمالی,"شیروان, استان خراسان شمالی",خطا,خطا
صفی آباد,خراسان شمالی,"صفی آباد, استان خراسان شمالی",,
فاروج,خراسان شمالی,"فاروج, استان خراسان شمالی",,
قاضی,خراسان شمالی,"قاضی, استان خراسان شمالی",خطا,خطا
گرمه,خراسان شمالی,"گرمه, استان خراسان شمالی",خطا,خطا
لوجلی,خراسان شمالی,"لوجلی, استان خراسان شمالی",,
اروندکنار,خوزستان,"اروندکنار, استان خوزستان",خطا,خطا
الوان,خوزستان,"الوان, استان خوزستان",خطا,خطا
امیدیه,خوزستان,"امیدیه, استان خوزستان",خطا,خطا
اندیمشک,خوزستان,"اندیمشک, استان خوزستان",خطا,خطا
اهواز,خوزستان,"اهواز, استان خوزستان",خطا,خطا
ایذه,خوزستان,"ایذه, استان خوزستان",خطا,خطا
آبادان,خوزستان,"آبادان, استان خوزستان",خطا,خطا
آغاجاری,خوزستان,"آغاجاری, استان خوزستان",خطا,خطا
باغ ملک,خوزستان,"باغ ملک, استان خوزستان",خطا,خطا
بستان,خوزستان,"بستان, استان خوزستان",خطا,خطا
بندرامام خمینی,خوزستان,"بندرامام خمینی, استان خوزستان",خطا,خطا
بندرماهشهر,خوزستان,"بندرماهشهر, استان خوزستان",خطا,خطا
بهبهان,خوزستان,"بهبهان, استان خوزستان",خطا,خطا
ترکالکی,خوزستان,"ترکالکی, استان خوزستان",خطا,خطا
جایزان,خوزستان,"جایزان, استان خوزستان",,
چمران,خوزستان,"چمران, استان خوزستان",,
چویبده,خوزستان,"چویبده, استان خوزستان",,
حر,خوزستان,"حر, استان خوزستان",,
حسینیه,خوزستان,"حسینیه, استان خوزستان",,
حمزه,خوزستان,"حمزه, استان خوزستان",,
حمیدیه,خوزستان,"حمیدیه, استان خوزستان",,
خرمشهر,خوزستان,"خرمشهر, استان خوزستان",,
دارخوین,خوزستان,"دارخوین, استان خوزستان",خطا,خطا
دزآب,خوزستان,"دزآب, استان خوزستان",خطا,خطا
دزفول,خوزستان,"دزفول, استان خوزستان",خطا,خطا
دهدز,خوزستان,"دهدز, استان خوزستان",خطا,خطا
رامشیر,خوزستان,"رامشیر, استان خوزستان",خطا,خطا
رامهرمز,خوزستان,"رامهرمز, استان خوزستان",خطا,خطا
رفیع,خوزستان,"رفیع, استان خوزستان",خطا,خطا
زهره,خوزستان,"زهره, استان خوزستان",خطا,خطا
سالند,خوزستان,"سالند, استان خوزستان",خطا,خطا
سردشت,خوزستان,"سردشت, استان خوزستان",خطا,خطا
سوسنگرد,خوزستان,"سوسنگرد, استان خوزستان",خطا,خطا
شادگان,خوزستان,"شادگان, استان خوزستان",خطا,خطا
شاوور,خوزستان,"شاوور, استان خوزستان",خطا,خطا
شرافت,خوزستان,"شرافت, استان خوزستان",خطا,خطا
شوش,خوزستان,"شوش, استان خوزستان",خطا,خطا
شوشتر,خوزستان,"شوشتر, استان خوزستان",خطا,خطا
شیبان,خوزستان,"شیبان, استان خوزستان",خطا,خطا
صالح شهر,خوزستان,"صالح شهر, استان خوزستان",,
صفی آباد,خوزستان,"صفی آباد, استان خوزستان",,
صیدون,خوزستان,"صیدون, استان خوزستان",,
قلعه تل,خوزستان,"قلعه تل, استان خوزستان",خطا,خطا
قلعه خواجه,خوزستان,"قلعه خواجه, استان خوزستان",خطا,خطا
گتوند,خوزستان,"گتوند, استان خوزستان",خطا,خطا
لالی,خوزستان,"لالی, استان خوزستان",,
مسجدسلیمان,خوزستان,"مسجدسلیمان, استان خوزستان",خطا,خطا
ملاثانی,خوزستان,"ملاثانی, استان خوزستان",خطا,خطا
میانرود,خوزستان,"میانرود, استان خوزستان",خطا,خطا
مینوشهر,خوزستان,"مینوشهر, استان خوزستان",خطا,خطا
هفتگل,خوزستان,"هفتگل, استان خوزستان",خطا,خطا
هندیجان,خوزستان,"هندیجان, استان خوزستان",خطا,خطا
هویزه,خوزستان,"هویزه, استان خوزستان",خطا,خطا
ویس,خوزستان,"ویس, استان خوزستان",خطا,خطا
ابهر,زنجان,"ابهر, استان زنجان",خطا,خطا
ارمغان خانه,زنجان,"ارمغان خانه, استان زنجان",خطا,خطا
آب بر,زنجان,"آب بر, استان زنجان",خطا,خطا
چورزق,زنجان,"چورزق, استان زنجان",,
حلب,زنجان,"حلب, استان زنجان",,
خرمدره,زنجان,"خرمدره, استان زنجان",,
دندی,زنجان,"دندی, استان زنجان",خطا,خطا
زرین آباد,زنجان,"زرین آباد, استان زنجان",خطا,خطا
زرین رود,زنجان,"زرین رود, استان زنجان",خطا,خطا
زنجان,زنجان,"زنجان, استان زنجان",خطا,خطا
سجاس,زنجان,"سجاس, استان زنجان",خطا,خطا
سلطانیه,زنجان,"سلطانیه, استان زنجان",خطا,خطا
سهرورد,زنجان,"سهرورد, استان زنجان",خطا,خطا
صائین قلعه,زنجان,"صائین قلعه, استان زنجان",,
قیدار,زنجان,"قیدار, استان زنجان",خطا,خطا
گرماب,زنجان,"گرماب, استان زنجان",خطا,خطا
ماه نشان,زنجان,"ماه نشان, استان زنجان",خطا,خطا
هیدج,زنجان,"هیدج, استان زنجان",خطا,خطا
امیریه,سمنان,"امیریه, استان سمنان",خطا,خطا
ایوانکی,سمنان,"ایوانکی, استان سمنان",خطا,خطا
آرادان,سمنان,"آرادان, استان سمنان",خطا,خطا
بسطام,سمنان,"بسطام, استان سمنان",خطا,خطا
بیارجمند,سمنان,"بیارجمند, استان سمنان",خطا,خطا
دامغان,سمنان,"دامغان, استان سمنان",خطا,خطا
درجزین,سمنان,"درجزین, استان سمنان",خطا,خطا
دیباج,سمنان,"دیباج, استان سمنان",خطا,خطا
سرخه,سمنان,"سرخه, استان سمنان",خطا,خطا
سمنان,سمنان,"سمنان, استان سمنان",خطا,خطا
شاهرود,سمنان,"شاهرود, استان سمنان",خطا,خطا
شهمیرزاد,سمنان,"شهمیرزاد, استان سمنان",خطا,خطا
کلاته خیج,سمنان,"کلاته خیج, استان سمنان",خطا,خطا
گرمسار,سمنان,"گرمسار, استان سمنان",خطا,خطا
مجن,سمنان,"مجن, استان سمنان",خطا,خطا
مهدی شهر,سمنان,"مهدی شهر, استان سمنان",خطا,خطا
میامی,سمنان,"میامی, استان سمنان",خطا,خطا
ادیمی,سیستان و بلوچستان,"ادیمی, استان سیستان و بلوچستان",خطا,خطا
اسپکه,سیستان و بلوچستان,"اسپکه, استان سیستان و بلوچستان",خطا,خطا
ایرانشهر,سیستان و بلوچستان,"ایرانشهر, استان سیستان و بلوچستان",خطا,خطا
بزمان,سیستان و بلوچستان,"بزمان, استان سیستان و بلوچستان",خطا,خطا
بمپور,سیستان و بلوچستان,"بمپور, استان سیستان و بلوچستان",خطا,خطا
بنت,سیستان و بلوچستان,"بنت, استان سیستان و بلوچستان",خطا,خطا
بنجار,سیستان و بلوچستان,"بنجار, استان سیستان و بلوچستان",خطا,خطا
پیشین,سیستان و بلوچستان,"پیشین, استان سیستان و بلوچستان",خطا,خطا
جالق,سیستان و بلوچستان,"جالق, استان سیستان و بلوچستان",,
چابهار,سیستان و بلوچستان,"چابهار, استان سیستان و بلوچستان",,
خاش,سیستان و بلوچستان,"خاش, استان سیستان و بلوچستان",,
دوست محمد,سیستان و بلوچستان,"دوست محمد, استان سیستان و بلوچستان",خطا,خطا
راسک,سیستان و بلوچستان,"راسک, استان سیستان و بلوچستان",خطا,خطا
زابل,سیستان و بلوچستان,"زابل, استان سیستان و بلوچستان",خطا,خطا
زابلی,سیستان و بلوچستان,"زابلی, استان سیستان و بلوچستان",خطا,خطا
زاهدان,سیستان و بلوچستان,"زاهدان, استان سیستان و بلوچستان",خطا,خطا
زهک,سیستان و بلوچستان,"زهک, استان سیستان و بلوچستان",خطا,خطا
سراوان,سیستان و بلوچستان,"سراوان, استان سیستان و بلوچستان",خطا,خطا
سرباز,سیستان و بلوچستان,"سرباز, استان سیستان و بلوچستان",خطا,خطا
سوران,سیستان و بلوچستان,"سوران, استان سیستان و بلوچستان",خطا,خطا
سیرکان,سیستان و بلوچستان,"سیرکان, استان سیستان و بلوچستان",خطا,خطا
علی اکبر,سیستان و بلوچستان,"علی اکبر, استان سیستان و بلوچستان",,
فنوج,سیستان و بلوچستان,"فنوج, استان سیستان و بلوچستان",,
قصرقند,سیستان و بلوچستان,"قصرقند, استان سیستان و بلوچستان",خطا,خطا
کنارک,سیستان و بلوچستان,"کنارک, استان سیستان و بلوچستان",خطا,خطا
گشت,سیستان و بلوچستان,"گشت, استان سیستان و بلوچستان",خطا,خطا
گلمورتی,سیستان و بلوچستان,"گلمورتی, استان سیستان و بلوچستان",خطا,خطا
محمدان,سیستان و بلوچستان,"محمدان, استان سیستان و بلوچستان",خطا,خطا
محمدآباد,سیستان و بلوچستان,"محمدآباد, استان سیستان و بلوچستان",خطا,خطا
محمدی,سیستان و بلوچستان,"محمدی, استان سیستان و بلوچستان",خطا,خطا
میرجاوه,سیستان و بلوچستان,"میرجاوه, استان سیستان و بلوچستان",خطا,خطا
نصرت آباد,سیستان و بلوچستان,"نصرت آباد, استان سیستان و بلوچستان",خطا,خطا
نگور,سیستان و بلوچستان,"نگور, استان سیستان و بلوچستان",خطا,خطا
نوک آباد,سیستان و بلوچستان,"نوک آباد, استان سیستان و بلوچستان",خطا,خطا
نیک شهر,سیستان و بلوچستان,"نیک شهر, استان سیستان و بلوچستان",خطا,خطا
هیدوچ,سیستان و بلوچستان,"هیدوچ, استان سیستان و بلوچستان",خطا,خطا
اردکان,فارس,"اردکان, استان فارس",خطا,خطا
ارسنجان,فارس,"ارسنجان, استان فارس",خطا,خطا
استهبان,فارس,"استهبان, استان فارس",خطا,خطا
اشکنان,فارس,"اشکنان, استان فارس",خطا,خطا
افزر,فارس,"افزر, استان فارس",خطا,خطا
اقلید,فارس,"اقلید, استان فارس",خطا,خطا
امام شهر,فارس,"امام شهر, استان فارس",خطا,خطا
اهل,فارس,"اهل, استان فارس",خطا,خطا
اوز,فارس,"اوز, استان فارس",خطا,خطا
ایج,فارس,"ایج, استان فارس",خطا,خطا
ایزدخواست,فارس,"ایزدخواست, استان فارس",خطا,خطا
آباده,فارس,"آباده, استان فارس",خطا,خطا
آباده طشک,فارس,"آباده طشک, استان فارس",خطا,خطا
باب انار,فارس,"باب انار, استان فارس",خطا,خطا
بالاده,فارس,"بالاده, استان فارس",خطا,خطا
بنارویه,فارس,"بنارویه, استان فارس",خطا,خطا
بهمن,فارس,"بهمن, استان فارس",خطا,خطا
بوانات,فارس,"بوانات, استان فارس",خطا,خطا
بیرم,فارس,"بیرم, استان فارس",خطا,خطا
بیضا,فارس,"بیضا, استان فارس",خطا,خطا
جنت شهر,فارس,"جنت شهر, استان فارس",,
جهرم,فارس,"جهرم, استان فارس",,
جویم,فارس,"جویم, استان فارس",,
زرین دشت,فارس,"زرین دشت, استان فارس",خطا,خطا
حسن آباد,فارس,"حسن آباد, استان فارس",,
خان زنیان,فارس,"خان زنیان, استان فارس",,
خاوران,فارس,"خاوران, استان فارس",,
خرامه,فارس,"خرامه, استان فارس",,
خشت,فارس,"خشت, استان فارس",,
خنج,فارس,"خنج, استان فارس",,
خور,فارس,"خور, استان فارس",,
داراب,فارس,"داراب, استان فارس",خطا,خطا
داریان,فارس,"داریان, استان فارس",خطا,خطا
دبیران,فارس,"دبیران, استان فارس",خطا,خطا
دژکرد,فارس,"دژکرد, استان فارس",خطا,خطا
دهرم,فارس,"دهرم, استان فارس",خطا,خطا
دوبرجی,فارس,"دوبرجی, استان فارس",خطا,خطا
رامجرد,فارس,"رامجرد, استان فارس",خطا,خطا
رونیز,فارس,"رونیز, استان فارس",خطا,خطا
زاهدشهر,فارس,"زاهدشهر, استان فارس",خطا,خطا
زرقان,فارس,"زرقان, استان فارس",خطا,خطا
سده,فارس,"سده, استان فارس",خطا,خطا
سروستان,فارس,"سروستان, استان فارس",خطا,خطا
سعادت شهر,فارس,"سعادت شهر, استان فارس",خطا,خطا
سورمق,فارس,"سورمق, استان فارس",خطا,خطا
سیدان,فارس,"سیدان, استان فارس",خطا,خطا
ششده,فارس,"ششده, استان فارس",خطا,خطا
شهرپیر,فارس,"شهرپیر, استان فارس",خطا,خطا
شهرصدرا,فارس,"شهرصدرا, استان فارس",خطا,خطا
شیراز,فارس,"شیراز, استان فارس",خطا,خطا
صغاد,فارس,"صغاد, استان فارس",,
صفاشهر,فارس,"صفاشهر, استان فارس",,
علامرودشت,فارس,"علامرودشت, استان فارس",,
فدامی,فارس,"فدامی, استان فارس",,
فراشبند,فارس,"فراشبند, استان فارس",,
فسا,فارس,"فسا, استان فارس",,
فیروزآباد,فارس,"فیروزآباد, استان فارس",,
قائمیه,فارس,"قائمیه, استان فارس",خطا,خطا
قادرآباد,فارس,"قادرآباد, استان فارس",خطا,خطا
قطب آباد,فارس,"قطب آباد, استان فارس",خطا,خطا
قطرویه,فارس,"قطرویه, استان فارس",خطا,خطا
قیر,فارس,"قیر, استان فارس",خطا,خطا
کارزین (فتح آباد),فارس,"کارزین (فتح آباد), استان فارس",خطا,خطا
کازرون,فارس,"کازرون, استان فارس",خطا,خطا
کامفیروز,فارس,"کامفیروز, استان فارس",خطا,خطا
کره ای,فارس,"کره ای, استان فارس",خطا,خطا
کنارتخته,فارس,"کنارتخته, استان فارس",خطا,خطا
کوار,فارس,"کوار, استان فارس",خطا,خطا
گراش,فارس,"گراش, استان فارس",خطا,خطا
گله دار,فارس,"گله دار, استان فارس",خطا,خطا
لار,فارس,"لار, استان فارس",,
لامرد,فارس,"لامرد, استان فارس",,
لپویی,فارس,"لپویی, استان فارس",,
لطیفی,فارس,"لطیفی, استان فارس",,
مبارک آباددیز,فارس,"مبارک آباددیز, استان فارس",خطا,خطا
مرودشت,فارس,"مرودشت, استان فارس",خطا,خطا
مشکان,فارس,"مشکان, استان فارس",خطا,خطا
مصیری,فارس,"مصیری, استان فارس",خطا,خطا
مهر,فارس,"مهر, استان فارس",خطا,خطا
میمند,فارس,"میمند, استان فارس",خطا,خطا
نوبندگان,فارس,"نوبندگان, استان فارس",خطا,خطا
نوجین,فارس,"نوجین, استان فارس",خطا,خطا
نودان,فارس,"نودان, استان فارس",خطا,خطا
نورآباد,فارس,"نورآباد, استان فارس",خطا,خطا
نی ریز,فارس,"نی ریز, استان فارس",خطا,خطا
وراوی,فارس,"وراوی, استان فارس",خطا,خطا
ارداق,قزوین,"ارداق, استان قزوین",خطا,خطا
اسفرورین,قزوین,"اسفرورین, استان قزوین",خطا,خطا
اقبالیه,قزوین,"اقبالیه, استان قزوین",خطا,خطا
الوند,قزوین,"الوند, استان قزوین",خطا,خطا
آبگرم,قزوین,"آبگرم, استان قزوین",خطا,خطا
آبیک,قزوین,"آبیک, استان قزوین",خطا,خطا
آوج,قزوین,"آوج, استان قزوین",خطا,خطا
بوئین زهرا,قزوین,"بوئین زهرا, استان قزوین",خطا,خطا
بیدستان,قزوین,"بیدستان, استان قزوین",خطا,خطا
تاکستان,قزوین,"تاکستان, استان قزوین",خطا,خطا
خاکعلی,قزوین,"خاکعلی, استان قزوین",,
خرمدشت,قزوین,"خرمدشت, استان قزوین",,
دانسفهان,قزوین,"دانسفهان, استان قزوین",خطا,خطا
رازمیان,قزوین,"رازمیان, استان قزوین",خطا,خطا
سگزآباد,قزوین,"سگزآباد, استان قزوین",خطا,خطا
سیردان,قزوین,"سیردان, استان قزوین",خطا,خطا
شال,قزوین,"شال, استان قزوین",خطا,خطا
شریفیه,قزوین,"شریفیه, استان قزوین",خطا,خطا
ضیاآباد,قزوین,"ضیاآباد, استان قزوین",,
قزوین,قزوین,"قزوین, استان قزوین",خطا,خطا
کوهین,قزوین,"کوهین, استان قزوین",خطا,خطا
محمدیه,قزوین,"محمدیه, استان قزوین",خطا,خطا
محمودآباد نمونه,قزوین,"محمودآباد نمونه, استان قزوین",خطا,خطا
معلم کلایه,قزوین,"معلم کلایه, استان قزوین",خطا,خطا
نرجه,قزوین,"نرجه, استان قزوین",خطا,خطا
جعفریه,قم,"جعفریه, استان قم",,
دستجرد,قم,"دستجرد, استان قم",خطا,خطا
سلفچگان,قم,"سلفچگان, استان قم",خطا,خطا
قم,قم,"قم, استان قم",خطا,خطا
قنوات,قم,"قنوات, استان قم",خطا,خطا
کهک,قم,"کهک, استان قم",خطا,خطا
آرمرده,کردستان,"آرمرده, استان کردستان",خطا,خطا
بابارشانی,کردستان,"بابارشانی, استان کردستان",خطا,خطا
بانه,کردستان,"بانه, استان کردستان",خطا,خطا
بلبان آباد,کردستان,"بلبان آباد, استان کردستان",خطا,خطا
بوئین سفلی,کردستان,"بوئین سفلی, استان کردستان",خطا,خطا
بیجار,کردستان,"بیجار, استان کردستان",خطا,خطا
چناره,کردستان,"چناره, استان کردستان",,
دزج,کردستان,"دزج, استان کردستان",خطا,خطا
دلبران,کردستان,"دلبران, استان کردستان",خطا,خطا
دهگلان,کردستان,"دهگلان, استان کردستان",خطا,خطا
دیواندره,کردستان,"دیواندره, استان کردستان",خطا,خطا
زرینه,کردستان,"زرینه, استان کردستان",خطا,خطا
سروآباد,کردستان,"سروآباد, استان کردستان",خطا,خطا
سریش آباد,کردستان,"سریش آباد, استان کردستان",خطا,خطا
سقز,کردستان,"سقز, استان کردستان",خطا,خطا
سنندج,کردستان,"سنندج, استان کردستان",خطا,خطا
شویشه,کردستان,"شویشه, استان کردستان",خطا,خطا
صاحب,کردستان,"صاحب, استان کردستان",,
قروه,کردستان,"قروه, استان کردستان",خطا,خطا
کامیاران,کردستان,"کامیاران, استان کردستان",خطا,خطا
کانی دینار,کردستان,"کانی دینار, استان کردستان",خطا,خطا
کانی سور,کردستان,"کانی سور, استان کردستان",خطا,خطا
مریوان,کردستان,"مریوان, استان کردستان",خطا,خطا
موچش,کردستان,"موچش, استان کردستان",خطا,خطا
یاسوکند,کردستان,"یاسوکند, استان کردستان",خطا,خطا
اختیارآباد,کرمان,"اختیارآباد, استان کرمان",خطا,خطا
ارزوئیه,کرمان,"ارزوئیه, استان کرمان",خطا,خطا
امین شهر,کرمان,"امین شهر, استان کرمان",خطا,خطا
انار,کرمان,"انار, استان کرمان",خطا,خطا
اندوهجرد,کرمان,"اندوهجرد, استان کرمان",خطا,خطا
باغین,کرمان,"باغین, استان کرمان",خطا,خطا
بافت,کرمان,"بافت, استان کرمان",خطا,خطا
بردسیر,کرمان,"بردسیر, استان کرمان",خطا,خطا
بروات,کرمان,"بروات, استان کرمان",خطا,خطا
بزنجان,کرمان,"بزنجان, استان کرمان",خطا,خطا
بم,کرمان,"بم, استان کرمان",خطا,خطا
بهرمان,کرمان,"بهرمان, استان کرمان",خطا,خطا
پاریز,کرمان,"پاریز, استان کرمان",خطا,خطا
جبالبارز,کرمان,"جبالبارز, استان کرمان",,
جوپار,کرمان,"جوپار, استان کرمان",,
جوزم,کرمان,"جوزم, استان کرمان",,
جیرفت,کرمان,"جیرفت, استان کرمان",,
چترود,کرمان,"چترود, استان کرمان",,
خاتون آباد,کرمان,"خاتون آباد, استان کرمان",,
خانوک,کرمان,"خانوک, استان کرمان",,
خورسند,کرمان,"خورسند, استان کرمان",,
درب بهشت,کرمان,"درب بهشت, استان کرمان",خطا,خطا
دهج,کرمان,"دهج, استان کرمان",خطا,خطا
رابر,کرمان,"رابر, استان کرمان",خطا,خطا
راور,کرمان,"راور, استان کرمان",خطا,خطا
راین,کرمان,"راین, استان کرمان",خطا,خطا
رفسنجان,کرمان,"رفسنجان, استان کرمان",خطا,خطا
رودبار,کرمان,"رودبار, استان کرمان",خطا,خطا
ریحان شهر,کرمان,"ریحان شهر, استان کرمان",خطا,خطا
زرند,کرمان,"زرند, استان کرمان",خطا,خطا
زنگی آباد,کرمان,"زنگی آباد, استان کرمان",خطا,خطا
زیدآباد,کرمان,"زیدآباد, استان کرمان",خطا,خطا
سیرجان,کرمان,"سیرجان, استان کرمان",خطا,خطا
شهداد,کرمان,"شهداد, استان کرمان",خطا,خطا
شهربابک,کرمان,"شهربابک, استان کرمان",خطا,خطا
صفائیه,کرمان,"صفائیه, استان کرمان",,
عنبرآباد,کرمان,"عنبرآباد, استان کرمان",,
فاریاب,کرمان,"فاریاب, استان کرمان",,
فهرج,کرمان,"فهرج, استان کرمان",,
قلعه گنج,کرمان,"قلعه گنج, استان کرمان",خطا,خطا
کاظم آباد,کرمان,"کاظم آباد, استان کرمان",خطا,خطا
کرمان,کرمان,"کرمان, استان کرمان",خطا,خطا
کشکوئیه,کرمان,"کشکوئیه, استان کرمان",خطا,خطا
کهنوج,کرمان,"کهنوج, استان کرمان",خطا,خطا
کوهبنان,کرمان,"کوهبنان, استان کرمان",خطا,خطا
کیانشهر,کرمان,"کیانشهر, استان کرمان",خطا,خطا
گلباف,کرمان,"گلباف, استان کرمان",خطا,خطا
گلزار,کرمان,"گلزار, استان کرمان",خطا,خطا
لاله زار,کرمان,"لاله زار, استان کرمان",,
ماهان,کرمان,"ماهان, استان کرمان",خطا,خطا
محمدآباد,کرمان,"محمدآباد, استان کرمان",خطا,خطا
محی آباد,کرمان,"محی آباد, استان کرمان",خطا,خطا
مردهک,کرمان,"مردهک, استان کرمان",خطا,خطا
مس سرچشمه,کرمان,"مس سرچشمه, استان کرمان",خطا,خطا
منوجان,کرمان,"منوجان, استان کرمان",خطا,خطا
نجف شهر,کرمان,"نجف شهر, استان کرمان",خطا,خطا
نرماشیر,کرمان,"نرماشیر, استان کرمان",خطا,خطا
نظام شهر,کرمان,"نظام شهر, استان کرمان",خطا,خطا
نگار,کرمان,"نگار, استان کرمان",خطا,خطا
نودژ,کرمان,"نودژ, استان کرمان",خطا,خطا
هجدک,کرمان,"هجدک, استان کرمان",خطا,خطا
یزدان شهر,کرمان,"یزدان شهر, استان کرمان",خطا,خطا
ازگله,کرمانشاه,"ازگله, استان کرمانشاه",خطا,خطا
اسلام آباد غرب,کرمانشاه,"اسلام آباد غرب, استان کرمانشاه",خطا,خطا
باینگان,کرمانشاه,"باینگان, استان کرمانشاه",خطا,خطا
بیستون,کرمانشاه,"بیستون, استان کرمانشاه",خطا,خطا
پاوه,کرمانشاه,"پاوه, استان کرمانشاه",خطا,خطا
تازه آباد,کرمانشاه,"تازه آباد, استان کرمانشاه",خطا,خطا
جوان رود,کرمانشاه,"جوان رود, استان کرمانشاه",,
حمیل,کرمانشاه,"حمیل, استان کرمانشاه",,
ماهیدشت,کرمانشاه,"ماهیدشت, استان کرمانشاه",خطا,خطا
روانسر,کرمانشاه,"روانسر, استان کرمانشاه",خطا,خطا
سرپل ذهاب,کرمانشاه,"سرپل ذهاب, استان کرمانشاه",خطا,خطا
سرمست,کرمانشاه,"سرمست, استان کرمانشاه",خطا,خطا
سطر,کرمانشاه,"سطر, استان کرمانشاه",خطا,خطا
سنقر,کرمانشاه,"سنقر, استان کرمانشاه",خطا,خطا
سومار,کرمانشاه,"سومار, استان کرمانشاه",خطا,خطا
شاهو,کرمانشاه,"شاهو, استان کرمانشاه",خطا,خطا
صحنه,کرمانشاه,"صحنه, استان کرمانشاه",,
قصرشیرین,کرمانشاه,"قصرشیرین, استان کرمانشاه",خطا,خطا
کرمانشاه,کرمانشاه,"کرمانشاه, استان کرمانشاه",خطا,خطا
کرندغرب,کرمانشاه,"کرندغرب, استان کرمانشاه",خطا,خطا
کنگاور,کرمانشاه,"کنگاور, استان کرمانشاه",خطا,خطا
کوزران,کرمانشاه,"کوزران, استان کرمانشاه",خطا,خطا
گهواره,کرمانشاه,"گهواره, استان کرمانشاه",خطا,خطا
گیلانغرب,کرمانشاه,"گیلانغرب, استان کرمانشاه",خطا,خطا
میان راهان,کرمانشاه,"میان راهان, استان کرمانشاه",خطا,خطا
نودشه,کرمانشاه,"نودشه, استان کرمانشاه",خطا,خطا
نوسود,کرمانشاه,"نوسود, استان کرمانشاه",خطا,خطا
هرسین,کرمانشاه,"هرسین, استان کرمانشاه",خطا,خطا
هلشی,کرمانشاه,"هلشی, استان کرمانشاه",خطا,خطا
باشت,کهگیلویه و بویراحمد,"باشت, استان کهگیلویه و بویراحمد",خطا,خطا
پاتاوه,کهگیلویه و بویراحمد,"پاتاوه, استان کهگیلویه و بویراحمد",خطا,خطا
چرام,کهگیلویه و بویراحمد,"چرام, استان کهگیلویه و بویراحمد",,
چیتاب,کهگیلویه و بویراحمد,"چیتاب, استان کهگیلویه و بویراحمد",,
دهدشت,کهگیلویه و بویراحمد,"دهدشت, استان کهگیلویه و بویراحمد",خطا,خطا
دوگنبدان,کهگیلویه و بویراحمد,"دوگنبدان, استان کهگیلویه و بویراحمد",خطا,خطا
دیشموک,کهگیلویه و بویراحمد,"دیشموک, استان کهگیلویه و بویراحمد",خطا,خطا
سوق,کهگیلویه و بویراحمد,"سوق, استان کهگیلویه و بویراحمد",خطا,خطا
سی سخت,کهگیلویه و بویراحمد,"سی سخت, استان کهگیلویه و بویراحمد",خطا,خطا
قلعه رئیسی,کهگیلویه و بویراحمد,"قلعه رئیسی, استان کهگیلویه و بویراحمد",خطا,خطا
گراب سفلی,کهگیلویه و بویراحمد,"گراب سفلی, استان کهگیلویه و بویراحمد",خطا,خطا
لنده,کهگیلویه و بویراحمد,"لنده, استان کهگیلویه و بویراحمد",,
لیکک,کهگیلویه و بویراحمد,"لیکک, استان کهگیلویه و بویراحمد",,
مادوان,کهگیلویه و بویراحمد,"مادوان, استان کهگیلویه و بویراحمد",خطا,خطا
مارگون,کهگیلویه و بویراحمد,"مارگون, استان کهگیلویه و بویراحمد",,
یاسوج,کهگیلویه و بویراحمد,"یاسوج, استان کهگیلویه و بویراحمد",51.22781033,35.54512133
انبارآلوم,گلستان,"انبارآلوم, استان گلستان",51.22781033,35.54512133
اینچه برون,گلستان,"اینچه برون, استان گلستان",51.22781033,35.54512133
آزادشهر,گلستان,"آزادشهر, استان گلستان",51.22781033,35.54512133
آق قلا,گلستان,"آق قلا, استان گلستان",47.02457367,35.91277867
بندرترکمن,گلستان,"بندرترکمن, استان گلستان",54.06970433,36.89339533
بندرگز,گلستان,"بندرگز, استان گلستان",56.30798300,27.19463500
جلین,گلستان,"جلین, استان گلستان",54.53483533,36.85383933
خان ببین,گلستان,"خان ببین, استان گلستان",54.53483533,36.85383933
دلند,گلستان,"دلند, استان گلستان",54.98551567,37.00981967
رامیان,گلستان,"رامیان, استان گلستان",55.14038900,37.01468500
سرخنکلاته,گلستان,"سرخنکلاته, استان گلستان",54.56799233,36.88720833
سیمین شهر,گلستان,"سیمین شهر, استان گلستان",54.23185800,37.01088200
علی آباد کتول,گلستان,"علی آباد کتول, استان گلستان",54.86632433,36.90761233
فاضل آباد,گلستان,"فاضل آباد, استان گلستان",54.75092800,36.89845600
کردکوی,گلستان,"کردکوی, استان گلستان",54.10954067,36.80064367
کلاله,گلستان,"کلاله, استان گلستان",55.49695933,37.37045233
گالیکش,گلستان,"گالیکش, استان گلستان",55.49695933,37.37045233
گرگان,گلستان,"گرگان, استان گلستان",55.43201167,37.27202867
گمیش تپه,گلستان,"گمیش تپه, استان گلستان",,
گنبدکاووس,گلستان,"گنبدکاووس, استان گلستان",55.43201167,37.27202867
مراوه,گلستان,"مراوه, استان گلستان",55.16716800,37.25261800
مینودشت,گلستان,"مینودشت, استان گلستان",59.54444900,36.32606200
نگین شهر,گلستان,"نگین شهر, استان گلستان",61.13757667,25.38826167
نوده خاندوز,گلستان,"نوده خاندوز, استان گلستان",55.26296367,37.07664967
نوکنده,گلستان,"نوکنده, استان گلستان",55.26296367,37.07664967
ازنا,لرستان,"ازنا, استان لرستان",49.45242967,33.45387867
اشترینان,لرستان,"اشترینان, استان لرستان",50.35373833,35.72239133
الشتر,لرستان,"الشتر, استان لرستان",50.35373833,35.72239133
الیگودرز,لرستان,"الیگودرز, استان لرستان",48.25678500,33.86374400
بروجرد,لرستان,"بروجرد, استان لرستان",48.75010300,33.89813700
پلدختر,لرستان,"پلدختر, استان لرستان",47.71524300,33.15008800
چالانچولان,لرستان,"چالانچولان, استان لرستان",48.90998867,33.66601067
چغلوندی,لرستان,"چغلوندی, استان لرستان",,
چقابل,لرستان,"چقابل, استان لرستان",48.90998867,33.66601067
خرم آباد,لرستان,"خرم آباد, استان لرستان",47.50540533,33.28307833
درب گنبد,لرستان,"درب گنبد, استان لرستان",57.33987300,29.23310500
دورود,لرستان,"دورود, استان لرستان",49.05269300,33.49981100
زاغه,لرستان,"زاغه, استان لرستان",48.70753267,33.49975267
سپیددشت,لرستان,"سپیددشت, استان لرستان",48.70753267,33.49975267
سراب دوره,لرستان,"سراب دوره, استان لرستان",46.99569133,35.31105533
فیروزآباد,لرستان,"فیروزآباد, استان لرستان",52.57127967,28.84452267
کونانی,لرستان,"کونانی, استان لرستان",,
کوهدشت,لرستان,"کوهدشت, استان لرستان",47.60903433,33.52941533
گراب,لرستان,"گراب, استان لرستان",47.23633433,33.47407033
معمولان,لرستان,"معمولان, استان لرستان",47.95974733,33.37857633
مومن آباد,لرستان,"مومن آباد, استان لرستان",49.52080767,33.59407667
نورآباد,لرستان,"نورآباد, استان لرستان",47.97389833,34.07204233
ویسیان,لرستان,"ویسیان, استان لرستان",50.16942767,30.76357567
احمدسرگوراب,گیلان,"احمدسرگوراب, استان گیلان",49.36639500,37.13121600
اسالم,گیلان,"اسالم, استان گیلان",48.95847633,37.72095333
اطاقور,گیلان,"اطاقور, استان گیلان",50.11692267,37.10900067
املش,گیلان,"املش, استان گیلان",50.18439767,37.09706067
آستارا,گیلان,"آستارا, استان گیلان",50.18439767,37.09706067
آستانه اشرفیه,گیلان,"آستانه اشرفیه, استان گیلان",49.94319967,37.26582967
بازار جمعه,گیلان,"بازار جمعه, استان گیلان",49.11917933,37.40525933
بره سر,گیلان,"بره سر, استان گیلان",49.11917933,37.40525933
بندرانزلی,گیلان,"بندرانزلی, استان گیلان",49.75390800,36.77514800
پره سر,گیلان,"پره سر, استان گیلان",49.06671067,37.60133667
تالش,گیلان,"تالش, استان گیلان",48.90397000,37.79751300
توتکابن,گیلان,"توتکابن, استان گیلان",49.52387133,36.89294033
جیرنده,گیلان,"جیرنده, استان گیلان",49.79534633,36.70428433
چابکسر,گیلان,"چابکسر, استان گیلان",50.56123067,36.98530567
چاف و چمخاله,گیلان,"چاف و چمخاله, استان گیلان",50.25427467,37.22952867
چوبر,گیلان,"چوبر, استان گیلان",48.89278367,38.17981167
حویق,گیلان,"حویق, استان گیلان",48.89157200,38.14761600
خشکبیجار,گیلان,"خشکبیجار, استان گیلان",49.75786333,37.37304633
خمام,گیلان,"خمام, استان گیلان",49.65776233,37.38820733
دیلمان,گیلان,"دیلمان, استان گیلان",49.90532667,36.88890467
رانکوه,گیلان,"رانکوه, استان گیلان",50.23552933,37.04882733
رحیم آباد,گیلان,"رحیم آباد, استان گیلان",50.33197433,37.03227333
رستم آباد,گیلان,"رستم آباد, استان گیلان",49.59250000,37.28079800
رشت,گیلان,"رشت, استان گیلان",49.59250000,37.28079800
رضوانشهر,گیلان,"رضوانشهر, استان گیلان",59.76855733,36.20543933
رودبار,گیلان,"رودبار, استان گیلان",49.42928867,36.82289367
رودبنه,گیلان,"رودبنه, استان گیلان",50.00229200,37.25530700
رودسر,گیلان,"رودسر, استان گیلان",50.28156900,37.13867000
سنگر,گیلان,"سنگر, استان گیلان",49.69395600,37.17854900
سیاهکل,گیلان,"سیاهکل, استان گیلان",49.87717400,37.16221200
شفت,گیلان,"شفت, استان گیلان",52.53338000,29.59665700
شلمان,گیلان,"شلمان, استان گیلان",50.21911400,37.15991300
صومعه سرا,گیلان,"صومعه سرا, استان گیلان",49.31396767,37.30024367
فومن,گیلان,"فومن, استان گیلان",49.31905467,37.23236467
کلاچای,گیلان,"کلاچای, استان گیلان",55.49695933,37.37045233
کوچصفهان,گیلان,"کوچصفهان, استان گیلان",49.77279167,37.27838667
کومله,گیلان,"کومله, استان گیلان",50.17572233,37.15212833
کیاشهر,گیلان,"کیاشهر, استان گیلان",49.94901400,37.41875200
گوراب زرمیخ,گیلان,"گوراب زرمیخ, استان گیلان",54.43316467,36.84209567
لاهیجان,گیلان,"لاهیجان, استان گیلان",50.00359533,37.20654533
لشت نشا,گیلان,"لشت نشا, استان گیلان",49.86080767,37.36128267
لنگرود,گیلان,"لنگرود, استان گیلان",49.86080767,37.36128267
لوشان,گیلان,"لوشان, استان گیلان",49.51571100,36.63015200
لولمان,گیلان,"لولمان, استان گیلان",49.81692633,37.25541133
لوندویل,گیلان,"لوندویل, استان گیلان",48.86884867,38.30875567
لیسار,گیلان,"لیسار, استان گیلان",48.90858833,37.95829033
ماسال,گیلان,"ماسال, استان گیلان",59.54444900,36.32606200
ماسوله,گیلان,"ماسوله, استان گیلان",49.13248267,37.36326467
مرجقل,گیلان,"مرجقل, استان گیلان",49.13248267,37.36326467
منجیل,گیلان,"منجیل, استان گیلان",49.13248267,37.36326467
واجارگاه,گیلان,"واجارگاه, استان گیلان",50.40641833,37.03979033
امیرکلا,مازندران,"امیرکلا, استان مازندران",52.66516033,36.59752833
ایزدشهر,مازندران,"ایزدشهر, استان مازندران",52.66516033,36.59752833
آلاشت,مازندران,"آلاشت, استان مازندران",52.83749267,36.06846467
آمل,مازندران,"آمل, استان مازندران",52.83749267,36.06846467
بابل,مازندران,"بابل, استان مازندران",52.67678567,36.53912167
بابلسر,مازندران,"بابلسر, استان مازندران",52.65003267,36.69810267
بلده,مازندران,"بلده, استان مازندران",51.80940733,36.20037533
بهشهر,مازندران,"بهشهر, استان مازندران",53.53889767,36.69874167
بهنمیر,مازندران,"بهنمیر, استان مازندران",50.24348267,30.59432267
پل سفید,مازندران,"پل سفید, استان مازندران",53.05522767,36.11943767
تنکابن,مازندران,"تنکابن, استان مازندران",50.87111933,36.81547233
جویبار,مازندران,"جویبار, استان مازندران",52.91213367,36.64505267
چالوس,مازندران,"چالوس, استان مازندران",51.42130433,36.65428433
چمستان,مازندران,"چمستان, استان مازندران",52.11777033,36.47866833
خرم آباد,مازندران,"خرم آباد, استان مازندران",50.87121167,36.78241167
خلیل شهر,مازندران,"خلیل شهر, استان مازندران",50.87121167,36.78241167
خوش رودپی,مازندران,"خوش رودپی, استان مازندران",52.56752033,36.37177733
دابودشت,مازندران,"دابودشت, استان مازندران",52.44757500,36.47767600
رامسر,مازندران,"رامسر, استان مازندران",52.44757500,36.47767600
رستمکلا,مازندران,"رستمکلا, استان مازندران",50.64338400,36.92264300
رویان,مازندران,"رویان, استان مازندران",51.97135733,36.57111433
رینه,مازندران,"رینه, استان مازندران",52.16543800,35.88133800
زرگرمحله,مازندران,"زرگرمحله, استان مازندران",52.57486867,36.51692267
زیرآب,مازندران,"زیرآب, استان مازندران",52.97371000,36.17929000
ساری,مازندران,"ساری, استان مازندران",53.05876333,36.56611733
سرخرود,مازندران,"سرخرود, استان مازندران",62.32288700,27.37218200
سلمان شهر,مازندران,"سلمان شهر, استان مازندران",51.19933800,36.70747200
سورک,مازندران,"سورک, استان مازندران",53.21098467,36.59036967
شیرگاه,مازندران,"شیرگاه, استان مازندران",52.88725633,36.29911633
شیرود,مازندران,"شیرود, استان مازندران",50.79055067,36.85202967
عباس آباد,مازندران,"عباس آباد, استان مازندران",51.10613033,36.72890233
فریدونکنار,مازندران,"فریدونکنار, استان مازندران",50.98691700,35.72001200
فریم,مازندران,"فریم, استان مازندران",,
قائم شهر,مازندران,"قائم شهر, استان مازندران",52.85824033,36.46356533
کتالم,مازندران,"کتالم, استان مازندران",50.96939233,35.82864433
کلارآباد,مازندران,"کلارآباد, استان مازندران",51.26724167,36.69909667
کلاردشت,مازندران,"کلاردشت, استان مازندران",51.15878700,36.50537700
کله بست,مازندران,"کله بست, استان مازندران",51.15878700,36.50537700
کوهی خیل,مازندران,"کوهی خیل, استان مازندران",50.96939233,35.82864433
کیاسر,مازندران,"کیاسر, استان مازندران",53.54198600,36.23737700
کیاکلا,مازندران,"کیاکلا, استان مازندران",52.81173600,36.58281500
گتاب,مازندران,"گتاب, استان مازندران",52.65684200,36.43376600
گزنک,مازندران,"گزنک, استان مازندران",52.22294400,35.90428400
گلوگاه,مازندران,"گلوگاه, استان مازندران",53.81000067,36.73445667
محمودآباد,مازندران,"محمودآباد, استان مازندران",52.24724233,36.63059833
مرزن آباد,مازندران,"مرزن آباد, استان مازندران",51.30038667,36.45389267
مرزیکلا,مازندران,"مرزیکلا, استان مازندران",52.73475267,36.36269967
نشتارود,مازندران,"نشتارود, استان مازندران",52.73475267,36.36269967
نکا,مازندران,"نکا, استان مازندران",53.29740567,36.64979667
نور,مازندران,"نور, استان مازندران",51.99739267,36.57409767
نوشهر,مازندران,"نوشهر, استان مازندران",51.49322300,36.64745000
اراک,مرکزی,"اراک, استان مرکزی",49.70260567,34.08745567
آستانه,مرکزی,"آستانه, استان مرکزی",49.70260567,34.08745567
آشتیان,مرکزی,"آشتیان, استان مرکزی",49.34753667,33.88337667
پرندک,مرکزی,"پرندک, استان مرکزی",50.67983533,35.36494433
تفرش,مرکزی,"تفرش, استان مرکزی",52.66359200,29.42063500
توره,مرکزی,"توره, استان مرکزی",49.29036533,34.04498233
جاورسیان,مرکزی,"جاورسیان, استان مرکزی",49.29036533,34.04498233
خشکرود,مرکزی,"خشکرود, استان مرکزی",50.33100300,35.39456200
خمین,مرکزی,"خمین, استان مرکزی",50.07859500,33.64226800
خنداب,مرکزی,"خنداب, استان مرکزی",49.18888967,34.39218867
داودآباد,مرکزی,"داودآباد, استان مرکزی",49.84917100,34.28975600
دلیجان,مرکزی,"دلیجان, استان مرکزی",49.84917100,34.28975600
رازقان,مرکزی,"رازقان, استان مرکزی",50.67713900,33.98428000
زاویه,مرکزی,"زاویه, استان مرکزی",50.57357433,35.37654233
ساروق,مرکزی,"ساروق, استان مرکزی",49.49859067,34.41158667
ساوه,مرکزی,"ساوه, استان مرکزی",50.35454567,35.02400267
سنجان,مرکزی,"سنجان, استان مرکزی",49.61988367,34.05105967
شازند,مرکزی,"شازند, استان مرکزی",49.61988367,34.05105967
غرق آباد,مرکزی,"غرق آباد, استان مرکزی",49.81914367,35.11029967
فرمهین,مرکزی,"فرمهین, استان مرکزی",49.68680133,34.50215533
قورچی باشی,مرکزی,"قورچی باشی, استان مرکزی",49.88603767,33.67492667
کرهرود,مرکزی,"کرهرود, استان مرکزی",49.64836567,34.06393367
کمیجان,مرکزی,"کمیجان, استان مرکزی",49.32749233,34.72435033
مامونیه,مرکزی,"مامونیه, استان مرکزی",50.48871700,35.30836800
محلات,مرکزی,"محلات, استان مرکزی",50.48871700,35.30836800
مهاجران,مرکزی,"مهاجران, استان مرکزی",49.43353667,34.04279167
میلاجرد,مرکزی,"میلاجرد, استان مرکزی",61.80772667,30.97215667
نراق,مرکزی,"نراق, استان مرکزی",50.84011067,34.01017767
نوبران,مرکزی,"نوبران, استان مرکزی",49.70805900,35.13320300
نیمور,مرکزی,"نیمور, استان مرکزی",49.70805900,35.13320300
هندودر,مرکزی,"هندودر, استان مرکزی",49.23242833,33.77717233
ابوموسی,هرمزگان,"ابوموسی, استان هرمزگان",55.02806900,25.88581000
بستک,هرمزگان,"بستک, استان هرمزگان",54.36201533,27.19849933
بندرجاسک,هرمزگان,"بندرجاسک, استان هرمزگان",57.77549900,25.64513500
بندرچارک,هرمزگان,"بندرچارک, استان هرمزگان",54.26745633,26.73712333
بندرخمیر,هرمزگان,"بندرخمیر, استان هرمزگان",55.58151533,26.95171233
بندرعباس,هرمزگان,"بندرعباس, استان هرمزگان",56.30798300,27.19463500
بندرلنگه,هرمزگان,"بندرلنگه, استان هرمزگان",54.89347733,26.56712333
بیکا,هرمزگان,"بیکا, استان هرمزگان",57.18031667,27.35482667
پارسیان,هرمزگان,"پارسیان, استان هرمزگان",53.03866100,27.21742800
تخت,هرمزگان,"تخت, استان هرمزگان",56.64004767,27.50443067
جناح,هرمزگان,"جناح, استان هرمزگان",54.29361300,27.02883600
حاجی آباد,هرمزگان,"حاجی آباد, استان هرمزگان",55.89685600,28.30099400
درگهان,هرمزگان,"درگهان, استان هرمزگان",56.07933467,26.96593667
دهبارز,هرمزگان,"دهبارز, استان هرمزگان",57.19069167,27.44108167
رویدر,هرمزگان,"رویدر, استان هرمزگان",55.41870333,27.46433933
زیارتعلی,هرمزگان,"زیارتعلی, استان هرمزگان",57.22798433,27.74535133
سردشت,هرمزگان,"سردشت, استان هرمزگان",45.47611833,36.15683033
سندرک,هرمزگان,"سندرک, استان هرمزگان",57.42714467,26.83799167
سوزا,هرمزگان,"سوزا, استان هرمزگان",56.06689667,26.77655467
سیریک,هرمزگان,"سیریک, استان هرمزگان",57.10726300,26.52070600
فارغان,هرمزگان,"فارغان, استان هرمزگان",56.25955700,28.01461700
فین,هرمزگان,"فین, استان هرمزگان",55.88395033,27.62423833
قشم,هرمزگان,"قشم, استان هرمزگان",56.26791300,26.95517800
قلعه قاضی,هرمزگان,"قلعه قاضی, استان هرمزگان",56.54915767,27.44769767
کنگ,هرمزگان,"کنگ, استان هرمزگان",54.92618567,26.59338367
کوشکنار,هرمزگان,"کوشکنار, استان هرمزگان",52.86670233,27.25196933
کیش,هرمزگان,"کیش, استان هرمزگان",53.98573333,26.54835033
گوهران,هرمزگان,"گوهران, استان هرمزگان",57.89649800,26.59710500
میناب,هرمزگان,"میناب, استان هرمزگان",57.07321500,27.14554000
هرمز,هرمزگان,"هرمز, استان هرمزگان",56.44886433,27.09332733
هشتبندی,هرمزگان,"هشتبندی, استان هرمزگان",57.45063233,27.16028433
ازندریان,همدان,"ازندریان, استان همدان",48.69805700,34.50204800
اسدآباد,همدان,"اسدآباد, استان همدان",48.12108233,34.78005033
برزول,همدان,"برزول, استان همدان",48.26241267,34.21366567
بهار,همدان,"بهار, استان همدان",48.44559533,34.89840933
تویسرکان,همدان,"تویسرکان, استان همدان",48.44152167,34.55239067
جورقان,همدان,"جورقان, استان همدان",48.54479100,34.88506500
جوکار,همدان,"جوکار, استان همدان",48.68716567,34.42977167
دمق,همدان,"دمق, استان همدان",48.82320333,35.44670033
رزن,همدان,"رزن, استان همدان",49.03287900,35.39286500
زنگنه,همدان,"زنگنه, استان همدان",,
سامن,همدان,"سامن, استان همدان",48.70825933,34.20981533
سرکان,همدان,"سرکان, استان همدان",48.44828633,34.59971033
شیرین سو,همدان,"شیرین سو, استان همدان",48.45102200,35.49307000
صالح آباد,همدان,"صالح آباد, استان همدان",48.34049600,34.91754700
فامنین,همدان,"فامنین, استان همدان",48.97157367,35.12212167
فرسفج,همدان,"فرسفج, استان همدان",48.28760267,34.48715767
فیروزان,همدان,"فیروزان, استان همدان",48.28760267,34.48715767
قروه درجزین,همدان,"قروه درجزین, استان همدان",49.10175700,35.31316600
قهاوند,همدان,"قهاوند, استان همدان",49.00476033,34.85661133
کبودر آهنگ,همدان,"کبودر آهنگ, استان همدان",48.71226467,35.20000167
گل تپه,همدان,"گل تپه, استان همدان",48.20939300,35.22630000
گیان,همدان,"گیان, استان همدان",48.24335767,34.17189867
لالجین,همدان,"لالجین, استان همدان",48.47712033,34.96826833
مریانج,همدان,"مریانج, استان همدان",48.46765800,34.83635700
ملایر,همدان,"ملایر, استان همدان",48.82193233,34.29290633
نهاوند,همدان,"نهاوند, استان همدان",48.37155267,34.18924167
همدان,همدان,"همدان, استان همدان",48.51516700,34.79881300
ابرکوه,یزد,"ابرکوه, استان یزد",53.26203267,31.12604867
احمدآباد,یزد,"احمدآباد, استان یزد",53.99225700,32.35762400
اردکان,یزد,"اردکان, استان یزد",54.01554967,32.31679067
اشکذر,یزد,"اشکذر, استان یزد",54.20643433,31.99877933
بافق,یزد,"بافق, استان یزد",55.40522867,31.60480067
بفروئیه,یزد,"بفروئیه, استان یزد",,
بهاباد,یزد,"بهاباد, استان یزد",56.01982100,31.87340400
تفت,یزد,"تفت, استان یزد",54.20927900,31.74959500
حمیدیا,یزد,"حمیدیا, استان یزد",54.39297600,31.81524000
خضرآباد,یزد,"خضرآباد, استان یزد",53.95216667,31.86622367
دیهوک,یزد,"دیهوک, استان یزد",,
زارچ,یزد,"زارچ, استان یزد",54.23212433,31.99086633
شاهدیه,یزد,"شاهدیه, استان یزد",54.27584567,31.94535467
طبس,یزد,"طبس, استان یزد",,
عقدا,یزد,"عقدا, استان یزد",53.63527000,32.44340200
مروست,یزد,"مروست, استان یزد",54.21085500,30.47498500
مهردشت,یزد,"مهردشت, استان یزد",53.35379267,31.02182767
مهریز,یزد,"مهریز, استان یزد",54.44661667,31.58346067
میبد,یزد,"میبد, استان یزد",54.01544167,32.24561967
ندوشن,یزد,"ندوشن, استان یزد",53.54625200,32.02323200
نیر,یزد,"نیر, استان یزد",58.79699200,36.21130100
هرات,یزد,"هرات, استان یزد",58.79699200,36.21130100
یزد,یزد,"یزد, استان یزد",54.35578567,31.88755767
پرند,تهران,"پرند, استان تهران",54.35578567,31.88755767
فردیس,البرز,"فردیس, استان البرز",50.98691700,35.72001200
مارلیک,البرز,"مارلیک, استان البرز",,
سادات شهر,مازندران,"سادات شهر, استان مازندران",50.98691700,35.72001200
زیباکنار,گیلان,"زیباکنار, استان گیلان",50.98691700,35.72001200
کردان,البرز,"کردان, استان البرز",,
ساوجبلاغ,البرز,"ساوجبلاغ, استان البرز",,
تهران دشت,البرز,"تهران دشت, استان البرز",,
گلبهار,خراسان رضوی,"گلبهار, استان خراسان رضوی",59.19982767,36.57830767
قیامدشت,تهران,"قیامدشت, استان تهران",,
بینالود,خراسان رضوی,"بینالود, استان خراسان رضوی",59.35864567,35.98263867
پیربازار,گیلان,"پیربازار, استان گیلان",49.54840500,37.34328900
رضوانشهر,یزد,"رضوانشهر, استان یزد",54.20022500,32.02829800
